City ID,City,Country,Date,Lat,Lng,Max Temp,Humidity,Cloudiness,Wind Speed,Description
0,Maceio,BR,2022-10-02 08:16:18,-9.6658,-35.7353,67.44,94,20,3.44,few clouds
1,San Javier,ES,2022-10-02 08:17:39,37.8063,-0.8374,73.98,60,0,8.05,clear sky
2,Sao Filipe,CV,2022-10-02 08:17:40,14.8961,-24.4956,77.22,72,100,8.97,overcast clouds
3,Barquisimeto,VE,2022-10-02 08:17:40,10.0739,-69.3228,68.09,96,47,3.94,scattered clouds
4,Cape Town,ZA,2022-10-02 08:17:08,-33.9258,18.4232,75.11,58,0,17.27,clear sky
5,Sao Joao Da Barra,BR,2022-10-02 08:17:40,-21.6403,-41.0511,67.66,85,0,8.97,clear sky
6,Bosaso,SO,2022-10-02 08:17:41,11.2842,49.1816,94.71,41,29,6.93,scattered clouds
7,Punta Arenas,CL,2022-10-02 08:15:06,-53.15,-70.9167,28.51,86,0,6.91,clear sky
8,Kasamwa,TZ,2022-10-02 08:17:41,-2.85,32.4333,82.38,36,100,8.52,overcast clouds
9,Ebreichsdorf,AT,2022-10-02 08:17:42,47.95,16.4,60.67,77,75,13.8,shower rain
10,Clyde River,CA,2022-10-02 08:17:42,70.4692,-68.5914,19.63,93,75,2.3,broken clouds
11,Tiksi,RU,2022-10-02 08:17:42,71.6872,128.8694,23.83,85,100,16.37,overcast clouds
12,Lompoc,US,2022-10-02 08:17:43,34.6391,-120.4579,58.59,92,0,5.75,clear sky
13,Vilaka,LV,2022-10-02 08:17:43,57.1846,27.6722,45.39,91,100,2.51,overcast clouds
14,Port Elizabeth,ZA,2022-10-02 08:17:44,-33.918,25.5701,69.31,76,0,12.66,clear sky
15,Manuk Mangkaw,PH,2022-10-02 08:17:44,4.8,119.85,84.24,66,79,1.52,broken clouds
16,Geraldton,AU,2022-10-02 08:17:41,-28.7667,114.6,72.01,60,17,19.57,few clouds
17,Shimoda,JP,2022-10-02 08:17:44,34.6667,138.95,74.71,63,0,8.93,clear sky
18,Qaanaaq,GL,2022-10-02 08:15:16,77.484,-69.3632,6.44,67,7,8.23,clear sky
19,Kapaa,US,2022-10-02 08:17:45,22.0752,-159.319,76.98,90,0,3.44,moderate rain
20,Tanete,ID,2022-10-02 08:17:45,-3.9443,119.7848,85.55,70,100,2.39,overcast clouds
21,Faanui,PF,2022-10-02 08:17:46,-16.4833,-151.75,78.62,70,72,14.5,broken clouds
22,Vestmannaeyjar,IS,2022-10-02 08:17:46,63.4427,-20.2734,47.93,80,98,26.57,overcast clouds
23,Buraydah,SA,2022-10-02 08:17:46,26.326,43.975,91.85,10,0,7.29,clear sky
24,Asau,RO,2022-10-02 08:17:47,46.4333,26.4,60.28,62,86,13.98,overcast clouds
25,Soller,ES,2022-10-02 08:17:29,39.7662,2.7152,72.91,73,0,4.0,clear sky
26,Ponta Do Sol,PT,2022-10-02 08:17:47,32.6667,-17.1,70.43,72,16,3.85,few clouds
27,Jamestown,US,2022-10-02 08:17:48,42.097,-79.2353,55.02,72,100,12.66,overcast clouds
28,Puerto Ayora,EC,2022-10-02 08:17:48,-0.7393,-90.3518,62.55,100,99,1.01,overcast clouds
29,Cedral,MX,2022-10-02 08:17:49,23.8,-100.7333,57.4,80,100,7.61,overcast clouds
30,Tuatapere,NZ,2022-10-02 08:17:49,-46.1333,167.6833,43.61,90,55,3.36,broken clouds
31,Butaritari,KI,2022-10-02 08:17:49,3.0707,172.7902,81.82,76,100,12.95,overcast clouds
32,Souillac,MU,2022-10-02 08:17:50,-20.5167,57.5167,77.38,50,75,10.36,broken clouds
33,Killybegs,IE,2022-10-02 08:17:50,54.6333,-8.45,53.31,76,85,9.22,overcast clouds
34,Nome,US,2022-10-02 08:15:31,64.5011,-165.4064,33.87,75,0,5.75,clear sky
35,Rosario,AR,2022-10-02 08:17:50,-32.9468,-60.6393,56.82,80,0,1.01,clear sky
36,Amarpur,IN,2022-10-02 08:17:51,25.0333,86.9,93.38,49,76,4.7,moderate rain
37,Mataura,NZ,2022-10-02 08:17:51,-46.1927,168.8643,47.48,96,40,2.24,scattered clouds
38,Ushuaia,AR,2022-10-02 08:17:52,-54.8,-68.3,33.46,69,0,8.05,clear sky
39,Rio Grande,BR,2022-10-02 08:17:21,-32.035,-52.0986,55.58,92,7,9.19,clear sky
40,Laguna,US,2022-10-02 08:17:52,38.421,-121.4238,62.06,83,0,10.36,clear sky
41,Vardo,NO,2022-10-02 08:17:53,70.3705,31.1107,40.98,87,100,4.61,overcast clouds
42,Dikson,RU,2022-10-02 08:17:53,73.5069,80.5464,33.01,84,84,13.91,broken clouds
43,Hobart,AU,2022-10-02 08:16:55,-42.8794,147.3294,58.05,60,0,9.22,clear sky
44,Deputatskiy,RU,2022-10-02 08:17:53,69.3,139.9,2.71,97,47,4.45,scattered clouds
45,Airai,TL,2022-10-02 08:18:54,-8.9266,125.4092,68.18,80,100,1.52,moderate rain
46,Bambous Virieux,MU,2022-10-02 08:18:54,-20.3428,57.7575,77.25,50,75,10.36,broken clouds
47,Albany,US,2022-10-02 08:17:45,42.6001,-73.9662,52.21,77,3,1.01,clear sky
48,Broome,US,2022-10-02 08:18:55,42.2506,-75.833,53.62,73,75,12.66,broken clouds
49,Cidreira,BR,2022-10-02 08:18:55,-30.1811,-50.2056,55.96,94,17,7.83,few clouds
50,Adrar,MR,2022-10-02 08:18:56,20.5022,-10.0711,78.15,26,4,7.92,clear sky
51,Hofn,IS,2022-10-02 08:18:56,64.2539,-15.2082,47.14,80,92,11.39,overcast clouds
52,Nanortalik,GL,2022-10-02 08:18:56,60.1432,-45.2371,38.03,83,100,8.86,overcast clouds
53,Mitsamiouli,KM,2022-10-02 08:18:57,-11.3847,43.2844,75.94,72,22,7.23,light rain
54,San Patricio,US,2022-10-02 08:18:57,28.017,-97.5169,78.84,62,53,5.95,broken clouds
55,Urumqi,CN,2022-10-02 08:16:03,43.801,87.6005,45.55,25,0,6.71,clear sky
56,Hilo,US,2022-10-02 08:18:58,19.7297,-155.09,77.29,88,40,5.75,scattered clouds
57,Ola,RU,2022-10-02 08:18:58,59.5833,151.2833,35.33,54,12,2.04,few clouds
58,Cine,TR,2022-10-02 08:18:58,37.6117,28.0614,80.01,24,12,9.73,few clouds
59,Hermanus,ZA,2022-10-02 08:18:59,-34.4187,19.2345,70.81,58,0,7.72,clear sky
60,Dudinka,RU,2022-10-02 08:18:59,69.4058,86.1778,31.62,72,98,9.8,overcast clouds
61,Khatanga,RU,2022-10-02 08:18:59,71.9667,102.5,25.56,95,99,12.37,overcast clouds
62,Norsup,VU,2022-10-02 08:19:00,-16.0667,167.3833,80.83,71,62,4.16,broken clouds
63,Torata,PE,2022-10-02 08:19:00,-17.0769,-70.8433,53.87,32,29,2.21,scattered clouds
64,Atuona,PF,2022-10-02 08:19:01,-9.8,-139.0333,76.71,75,5,17.92,clear sky
65,Bandarbeyla,SO,2022-10-02 08:19:01,9.4942,50.8122,88.56,53,14,21.63,few clouds
66,Chuy,UY,2022-10-02 08:19:01,-33.6971,-53.4616,50.92,95,18,5.37,few clouds
67,Lujan,AR,2022-10-02 08:19:02,-34.5703,-59.105,54.95,85,8,4.65,clear sky
68,Chokurdakh,RU,2022-10-02 08:19:02,70.6333,147.9167,22.42,86,98,6.87,overcast clouds
69,Busselton,AU,2022-10-02 08:19:03,-33.65,115.3333,61.95,53,89,12.15,overcast clouds
70,Raudeberg,NO,2022-10-02 08:19:03,61.9875,5.1352,54.95,60,29,14.41,scattered clouds
71,Rikitea,PF,2022-10-02 08:19:03,-23.1203,-134.9692,73.51,70,8,10.22,clear sky
72,Hasaki,JP,2022-10-02 08:19:04,35.7333,140.8333,73.8,61,66,10.27,broken clouds
73,Avarua,CK,2022-10-02 08:19:05,-21.2078,-159.775,71.65,64,20,11.5,few clouds
74,Grand Gaube,MU,2022-10-02 08:19:05,-20.0064,57.6608,77.4,64,54,13.09,broken clouds
75,Cherskiy,RU,2022-10-02 08:17:56,68.75,161.3,29.98,99,100,3.98,light snow
76,Itarsi,IN,2022-10-02 08:19:06,22.6167,77.75,87.6,56,52,9.01,broken clouds
77,Pontes E Lacerda,BR,2022-10-02 08:19:06,-15.2261,-59.3353,72.61,70,8,2.66,clear sky
78,Bathsheba,BB,2022-10-02 08:19:06,13.2167,-59.5167,81.21,83,20,13.8,few clouds
79,Khandagayty,RU,2022-10-02 08:19:07,50.7333,92.05,33.67,26,89,7.25,overcast clouds
80,Santa Cruz,BO,2022-10-02 08:19:07,-17.8,-63.1667,67.46,77,26,8.05,scattered clouds
81,Tuktoyaktuk,CA,2022-10-02 08:19:08,69.4541,-133.0374,29.68,79,100,17.78,overcast clouds
82,Hithadhoo,MV,2022-10-02 08:19:08,-0.6,73.0833,82.09,69,98,16.78,overcast clouds
83,Longyearbyen,SJ,2022-10-02 08:19:09,78.2186,15.6401,35.44,93,75,6.91,broken clouds
84,Lebu,CL,2022-10-02 08:17:48,-37.6167,-73.65,49.82,90,100,6.96,overcast clouds
85,Klaksvik,FO,2022-10-02 08:19:09,62.2266,-6.589,50.92,81,55,28.27,broken clouds
86,Norman Wells,CA,2022-10-02 08:19:10,65.282,-126.8329,33.84,100,100,24.16,overcast clouds
87,Saint-Philippe,RE,2022-10-02 08:19:10,-21.3585,55.7679,76.59,66,19,11.86,few clouds
88,Port-Gentil,GA,2022-10-02 08:19:10,-0.7193,8.7815,76.96,88,75,5.75,broken clouds
89,Nouadhibou,MR,2022-10-02 08:19:11,20.931,-17.0347,67.98,88,0,12.66,clear sky
90,Monroe,US,2022-10-02 08:20:11,43.1501,-77.6831,56.05,78,100,20.71,overcast clouds
91,Berlevag,NO,2022-10-02 08:20:12,70.8578,29.0864,41.0,75,100,1.14,overcast clouds
92,Bubaque,GW,2022-10-02 08:20:12,11.2833,-15.8333,79.93,79,98,8.55,light rain
93,Seoul,KR,2022-10-02 08:20:13,37.5683,126.9778,71.2,62,100,5.75,light rain
94,Ivanteyevka,RU,2022-10-02 08:20:13,55.9711,37.9208,53.26,82,100,9.66,overcast clouds
95,Mecca,SA,2022-10-02 08:20:14,21.4267,39.8261,96.01,23,0,6.93,clear sky
96,Panino,RU,2022-10-02 08:20:14,51.6467,40.1346,66.6,64,100,8.84,overcast clouds
97,Cabo San Lucas,MX,2022-10-02 08:20:14,22.8909,-109.9124,83.52,66,31,4.0,scattered clouds
98,Vadso,NO,2022-10-02 08:20:15,70.0744,29.7487,41.16,81,100,6.91,light rain
99,Kilembe,UG,2022-10-02 08:20:15,0.2,30.0,68.52,67,100,3.04,overcast clouds
100,Nikolskoye,RU,2022-10-02 08:20:16,59.7035,30.7861,47.79,68,92,5.06,overcast clouds
101,Te Anau,NZ,2022-10-02 08:20:16,-45.4167,167.7167,39.78,95,57,0.56,broken clouds
102,Kijabe,KE,2022-10-02 08:20:17,-0.933,36.5758,71.42,58,62,4.0,broken clouds
103,Chiman,PK,2022-10-02 08:20:17,32.5463,73.8138,93.02,37,0,4.05,clear sky
104,Flinders,AU,2022-10-02 08:20:17,-34.5833,150.8552,57.38,75,8,2.91,clear sky
105,Aswan,EG,2022-10-02 08:20:18,24.0934,32.907,97.92,18,0,10.67,clear sky
106,Castro,BR,2022-10-02 08:20:18,-24.7911,-50.0119,53.49,97,6,3.27,clear sky
107,Mushie,CD,2022-10-02 08:20:19,-3.0167,16.9,71.85,95,100,2.39,light rain
108,Marathon,US,2022-10-02 08:20:19,44.9,-89.7668,54.19,83,100,10.36,overcast clouds
109,Minsk,BY,2022-10-02 08:17:35,53.9,27.5667,44.35,84,100,5.99,overcast clouds
110,Bredasdorp,ZA,2022-10-02 08:20:20,-34.5322,20.0403,72.01,43,0,3.51,clear sky
111,Eschwege,DE,2022-10-02 08:19:11,51.1833,10.0667,56.48,91,100,11.92,overcast clouds
112,Carballo,ES,2022-10-02 08:20:20,43.213,-8.691,58.51,96,99,1.16,overcast clouds
113,New Norfolk,AU,2022-10-02 08:20:20,-42.7826,147.0587,57.7,54,100,1.99,overcast clouds
114,Alekseyevka,RU,2022-10-02 08:20:21,50.6309,38.6903,65.82,74,100,11.34,overcast clouds
115,Yellowknife,CA,2022-10-02 08:20:21,62.456,-114.3525,55.92,82,75,8.05,broken clouds
116,Balabac,PH,2022-10-02 08:20:22,7.9868,117.0645,84.52,72,99,9.66,overcast clouds
117,Upernavik,GL,2022-10-02 08:20:22,72.7868,-56.1549,19.6,86,23,5.53,few clouds
118,Beringovskiy,RU,2022-10-02 08:20:22,63.05,179.3167,39.65,95,100,14.72,light rain
119,Tucurui,BR,2022-10-02 08:18:52,-3.7661,-49.6725,72.18,93,62,3.33,broken clouds
120,Milkovo,RU,2022-10-02 08:20:23,54.7167,158.6167,39.74,66,83,5.55,broken clouds
121,Bluff,NZ,2022-10-02 08:20:24,-46.6,168.3333,47.8,71,8,7.7,clear sky
122,Calbuco,CL,2022-10-02 08:18:17,-41.768,-73.1273,40.21,87,100,1.25,overcast clouds
123,Praya,CV,2022-10-02 08:20:24,14.9215,-23.5087,77.54,69,40,12.66,scattered clouds
124,The Valley,AI,2022-10-02 08:19:57,18.217,-63.0578,82.09,75,100,15.84,overcast clouds
125,Kaitangata,NZ,2022-10-02 08:20:25,-46.2817,169.8464,44.53,93,1,3.42,clear sky
126,Hay River,CA,2022-10-02 08:20:25,60.8156,-115.7999,66.18,48,75,16.11,broken clouds
127,Dixon,US,2022-10-02 08:20:25,38.4455,-121.8233,62.42,77,0,5.75,clear sky
128,Drayton Valley,CA,2022-10-02 08:20:16,53.2168,-114.9854,50.32,71,81,7.2,broken clouds
129,Lishan,CN,2022-10-02 08:20:26,31.8576,113.2951,101.41,30,51,16.96,broken clouds
130,Urucara,BR,2022-10-02 08:20:27,-2.5364,-57.76,73.8,92,100,3.31,overcast clouds
131,Suclayin,PH,2022-10-02 08:20:27,15.7568,121.5503,79.59,89,100,6.15,moderate rain
132,Abha,SA,2022-10-02 08:20:27,18.2164,42.5053,77.25,17,20,5.75,few clouds
133,Rio Gallegos,AR,2022-10-02 08:20:28,-51.6226,-69.2181,28.45,86,0,2.3,clear sky
134,Carnarvon,AU,2022-10-02 08:20:28,-24.8667,113.6333,73.26,57,42,18.86,scattered clouds
135,Hualmay,PE,2022-10-02 08:20:29,-11.0964,-77.6139,60.71,87,62,9.26,broken clouds
136,Shihezi,CN,2022-10-02 08:20:29,44.3,86.0333,50.61,19,0,12.48,clear sky
137,Arraial Do Cabo,BR,2022-10-02 08:20:29,-22.9661,-42.0278,67.3,88,87,11.83,overcast clouds
138,Jinchang,CN,2022-10-02 08:21:30,38.4953,102.1739,54.5,22,87,17.52,overcast clouds
139,Abu Samrah,SY,2022-10-02 08:21:30,35.3029,37.1841,85.77,27,0,4.85,clear sky
140,Barrow,US,2022-10-02 08:21:31,71.2906,-156.7887,28.42,74,100,6.91,overcast clouds
141,Mar Del Plata,AR,2022-10-02 08:21:31,-38.0023,-57.5575,52.09,86,0,11.01,clear sky
142,Omsukchan,RU,2022-10-02 08:21:31,62.5333,155.8,16.56,95,88,4.36,overcast clouds
143,Torbay,CA,2022-10-02 08:21:32,47.6666,-52.7314,49.28,91,100,4.61,overcast clouds
144,Nhulunbuy,AU,2022-10-02 08:21:32,-12.2333,136.7667,84.81,65,99,5.75,overcast clouds
145,Bundi,IN,2022-10-02 08:21:32,25.4417,75.6417,93.09,31,0,8.14,clear sky
146,Quatre Cocos,MU,2022-10-02 08:21:33,-20.2078,57.7625,77.11,59,29,11.77,scattered clouds
147,Havlickuv Brod,CZ,2022-10-02 08:21:33,49.6078,15.5807,56.61,82,99,15.26,overcast clouds
148,Tangier,MA,2022-10-02 08:21:34,35.7806,-5.8137,72.75,60,0,32.21,clear sky
149,Isangel,VU,2022-10-02 08:21:34,-19.55,169.2667,76.84,84,71,2.62,broken clouds
150,Sinnamary,GF,2022-10-02 08:21:35,5.3833,-52.95,77.47,89,29,5.97,scattered clouds
151,Georgetown,MY,2022-10-02 08:17:39,5.4112,100.3354,89.53,72,20,5.75,few clouds
152,Megion,RU,2022-10-02 08:21:35,61.0296,76.1136,39.22,45,83,12.12,broken clouds
153,Teahupoo,PF,2022-10-02 08:21:36,-17.8333,-149.2667,67.96,77,100,12.24,light rain
154,Mahebourg,MU,2022-10-02 08:21:36,-20.4081,57.7,77.29,50,75,10.36,broken clouds
155,Beloha,MG,2022-10-02 08:21:36,-25.1667,45.05,93.65,18,39,2.93,scattered clouds
156,Keetmanshoop,NA,2022-10-02 08:21:37,-26.5833,18.1333,86.63,8,0,10.51,clear sky
157,Nizwa,OM,2022-10-02 08:21:37,22.9333,57.5333,94.3,23,1,7.29,clear sky
158,Daphne,US,2022-10-02 08:21:37,30.6035,-87.9036,61.79,73,0,6.91,clear sky
159,Poum,NC,2022-10-02 08:21:38,-20.2333,164.0167,74.88,61,100,10.4,overcast clouds
160,Shima,CN,2022-10-02 08:21:38,24.4478,117.8111,87.82,56,5,11.39,clear sky
161,Vaini,TO,2022-10-02 08:21:39,-21.2,-175.2,75.36,83,20,5.75,few clouds
162,Vanimo,PG,2022-10-02 08:21:39,-2.6741,141.3028,82.26,76,98,8.41,light rain
163,Talnakh,RU,2022-10-02 08:21:39,69.4865,88.3972,31.21,87,93,7.05,overcast clouds
164,Zhigansk,RU,2022-10-02 08:21:40,66.7697,123.3711,27.45,76,79,4.27,broken clouds
165,Kruisfontein,ZA,2022-10-02 08:21:40,-34.0033,24.7314,72.72,47,6,7.49,clear sky
166,Aklavik,CA,2022-10-02 08:21:41,68.2191,-135.0107,29.28,94,100,11.27,overcast clouds
167,Santiago De Cuba,CU,2022-10-02 08:21:41,20.0247,-75.8219,75.31,100,100,5.75,overcast clouds
168,Iquique,CL,2022-10-02 08:21:41,-20.2208,-70.1431,57.24,65,13,6.73,few clouds
169,Chapais,CA,2022-10-02 08:21:42,49.7834,-74.8492,28.18,96,7,3.94,clear sky
170,Anadyr,RU,2022-10-02 08:21:42,64.75,177.4833,32.5,93,0,6.71,clear sky
171,Cap Malheureux,MU,2022-10-02 08:21:43,-19.9842,57.6142,71.96,63,43,12.97,scattered clouds
172,Corrente,BR,2022-10-02 08:21:43,-3.7367,-43.3394,69.93,99,14,2.28,few clouds
173,Ngunguru,NZ,2022-10-02 08:21:44,-35.6167,174.5,58.98,89,19,13.53,few clouds
174,Moyale,KE,2022-10-02 08:21:44,3.5167,39.0584,75.58,45,28,12.64,scattered clouds
175,Valls,ES,2022-10-02 08:21:44,41.2861,1.2499,71.94,57,20,2.3,few clouds
176,Noyabrsk,RU,2022-10-02 08:21:45,63.1994,75.4507,37.35,50,100,19.77,overcast clouds
177,Cortes,ES,2022-10-02 08:21:45,41.9395,-1.4396,60.08,53,58,3.22,broken clouds
178,Hami,CN,2022-10-02 08:21:45,42.8,93.45,55.4,13,97,8.84,overcast clouds
179,Tessalit,ML,2022-10-02 08:21:46,20.1986,1.0114,86.56,38,48,6.93,scattered clouds
180,Ostrovnoy,RU,2022-10-02 08:21:46,68.0531,39.5131,38.21,76,100,11.56,overcast clouds
181,Port Hardy,CA,2022-10-02 08:21:47,50.6996,-127.4199,51.8,100,0,2.3,clear sky
182,Fomboni,KM,2022-10-02 08:21:47,-12.28,43.7425,75.06,74,25,5.44,light rain
183,Makinsk,KZ,2022-10-02 08:21:48,52.6292,70.4169,42.76,34,9,7.11,clear sky
184,Puerto Escondido,MX,2022-10-02 08:21:48,15.85,-97.0667,76.78,84,58,4.29,broken clouds
185,Cockburn Town,TC,2022-10-02 08:21:48,21.4612,-71.1419,82.62,76,85,18.07,overcast clouds
186,Malpura,IN,2022-10-02 08:22:49,26.2833,75.3833,93.22,31,1,8.59,clear sky
187,Youghal,IE,2022-10-02 08:22:49,51.95,-7.8506,55.09,93,0,6.11,clear sky
188,Monrovia,LR,2022-10-02 08:22:50,6.3005,-10.7969,74.97,84,96,5.12,light rain
189,Esperance,AU,2022-10-02 08:22:50,-33.8667,121.9,56.34,79,100,19.06,overcast clouds
190,Labuhan,ID,2022-10-02 08:22:50,-6.8844,112.2051,86.72,64,76,11.63,broken clouds
191,Tasiilaq,GL,2022-10-02 08:22:51,65.6145,-37.6368,35.98,98,100,17.05,moderate rain
192,Saint George,US,2022-10-02 08:22:51,37.1041,-113.5841,73.99,43,20,1.01,few clouds
193,Saskylakh,RU,2022-10-02 08:22:52,71.9167,114.0833,28.6,95,100,14.72,light snow
194,Kodiak,US,2022-10-02 08:22:52,57.79,-152.4072,47.71,87,100,0.0,overcast clouds
195,Ilulissat,GL,2022-10-02 08:22:52,69.2167,-51.1,28.42,74,100,1.14,overcast clouds
196,Tautira,PF,2022-10-02 08:22:53,-17.7333,-149.15,76.8,77,100,11.43,light rain
197,Saldanha,ZA,2022-10-02 08:22:53,-33.0117,17.9442,68.05,65,0,9.17,clear sky
198,Stornoway,GB,2022-10-02 08:22:53,58.2093,-6.3865,53.56,90,40,12.66,scattered clouds
199,Katsuura,JP,2022-10-02 08:22:54,35.1333,140.3,73.94,71,69,11.07,broken clouds
200,Qasigiannguit,GL,2022-10-02 08:22:54,68.8193,-51.1922,28.65,83,95,3.74,overcast clouds
201,Krasnogorskiy,RU,2022-10-02 08:20:20,54.6025,61.231,50.59,34,95,15.26,overcast clouds
202,Zykovo,RU,2022-10-02 08:19:11,55.9519,93.1461,36.34,57,100,9.13,overcast clouds
203,Garden City,US,2022-10-02 08:21:42,42.3256,-83.331,58.39,89,20,11.5,few clouds
204,Dingle,PH,2022-10-02 08:22:55,10.9995,122.6711,84.31,78,97,9.48,overcast clouds
205,Ancud,CL,2022-10-02 08:22:55,-41.8697,-73.8203,43.0,71,100,4.7,overcast clouds
206,Aykhal,RU,2022-10-02 08:22:56,66.0,111.5,24.96,94,100,16.44,light snow
207,Benghazi,LY,2022-10-02 08:17:59,32.1167,20.0667,80.87,77,4,19.13,clear sky
208,Kemijarvi,FI,2022-10-02 08:22:56,66.7131,27.4306,38.25,87,100,5.64,light rain
209,Washington,US,2022-10-02 08:19:01,47.5001,-120.5015,61.92,62,0,3.71,clear sky
210,Merauke,ID,2022-10-02 08:22:57,-8.4667,140.3333,81.52,83,100,12.5,overcast clouds
211,Ratnagiri,IN,2022-10-02 08:22:57,16.9833,73.3,82.4,77,22,10.58,few clouds
212,Srednekolymsk,RU,2022-10-02 08:22:58,67.45,153.6833,27.3,76,100,4.63,overcast clouds
213,Plouzane,FR,2022-10-02 08:22:58,48.3833,-4.6167,62.92,94,100,19.57,overcast clouds
214,Yar-Sale,RU,2022-10-02 08:22:58,66.8333,70.8333,34.81,88,100,15.46,overcast clouds
215,Berwick,US,2022-10-02 08:19:06,41.0545,-76.2333,57.61,90,100,5.99,overcast clouds
216,Hambantota,LK,2022-10-02 08:22:59,6.1241,81.1185,88.09,61,97,27.25,overcast clouds
217,Lasa,IT,2022-10-02 08:22:59,46.6166,10.7002,54.48,90,88,5.57,overcast clouds
218,West Melbourne,US,2022-10-02 08:23:00,28.0717,-80.6534,73.98,92,100,9.22,overcast clouds
219,Fortuna,US,2022-10-02 08:21:13,40.5982,-124.1573,57.65,89,35,1.74,scattered clouds
220,Myitkyina,MM,2022-10-02 08:23:00,25.3833,97.4,90.45,58,95,2.77,overcast clouds
221,Qaqortoq,GL,2022-10-02 08:23:00,60.7167,-46.0333,36.64,82,97,5.75,overcast clouds
222,Veraval,IN,2022-10-02 08:23:01,20.9,70.3667,84.43,62,2,8.68,clear sky
223,Pascagoula,US,2022-10-02 08:23:01,30.3658,-88.5561,54.32,93,0,0.0,clear sky
224,Tura,IN,2022-10-02 08:23:02,25.5198,90.2201,82.44,85,99,2.77,overcast clouds
225,Solwezi,ZM,2022-10-02 08:23:02,-12.1688,26.3894,80.69,24,17,10.38,few clouds
226,El Tocuyo,VE,2022-10-02 08:23:03,9.7873,-69.7937,68.11,92,51,4.85,light rain
227,Severo-Kurilsk,RU,2022-10-02 08:23:03,50.6789,156.125,45.46,67,14,23.26,few clouds
228,Belyy Yar,RU,2022-10-02 08:24:03,53.6039,91.3903,44.85,39,0,4.47,clear sky
229,Amalapuram,IN,2022-10-02 08:24:04,16.5833,82.0167,84.24,75,100,4.07,light rain
230,Phuket,TH,2022-10-02 08:21:02,8.0,98.25,87.1,79,20,5.75,few clouds
231,Sao Felix Do Xingu,BR,2022-10-02 08:24:04,-6.6447,-51.995,71.94,74,48,1.72,scattered clouds
232,Pevek,RU,2022-10-02 08:24:05,69.7008,170.3133,32.49,83,100,1.72,overcast clouds
233,Marsa Matruh,EG,2022-10-02 08:24:05,31.3525,27.2453,86.2,62,0,14.97,clear sky
234,Hope,US,2022-10-02 08:24:06,33.6671,-93.5916,57.25,53,0,5.68,clear sky
235,Zhezkazgan,KZ,2022-10-02 08:24:06,47.8043,67.7144,51.78,22,0,22.37,clear sky
236,Fare,PF,2022-10-02 08:24:07,-16.7,-151.0167,77.74,74,88,13.69,light rain
237,Edinburgh,GB,2022-10-02 08:24:07,55.9521,-3.1965,53.78,83,20,11.5,few clouds
238,Iki-Burul,RU,2022-10-02 08:21:10,45.8208,44.6472,76.96,37,100,14.76,overcast clouds
239,Comodoro Rivadavia,AR,2022-10-02 08:24:08,-45.8667,-67.5,39.06,81,0,4.61,clear sky
240,Lac Du Bonnet,CA,2022-10-02 08:24:08,50.2536,-96.0612,47.91,97,6,5.7,clear sky
241,Victoria,HK,2022-10-02 08:24:08,22.2855,114.1577,90.18,75,6,11.01,clear sky
242,Semnan,IR,2022-10-02 08:24:09,35.5729,53.3971,76.23,33,0,6.44,clear sky
243,Morant Bay,JM,2022-10-02 08:24:09,17.8815,-76.4093,76.62,83,98,3.67,moderate rain
244,Nemuro,JP,2022-10-02 08:24:09,43.3236,145.575,57.34,69,100,10.94,overcast clouds
245,Bethel,US,2022-10-02 08:24:10,41.3712,-73.414,60.03,66,100,3.0,overcast clouds
246,Priargunsk,RU,2022-10-02 08:24:10,50.3691,119.1012,44.78,22,100,13.94,overcast clouds
247,Sangar,RU,2022-10-02 08:24:11,63.9242,127.4739,27.77,74,100,5.84,overcast clouds
248,Halifax,CA,2022-10-02 08:21:57,44.6453,-63.5724,51.8,82,100,16.11,overcast clouds
249,Guerrero Negro,MX,2022-10-02 08:24:11,27.9769,-114.0611,68.11,80,2,10.6,clear sky
250,Naco,MX,2022-10-02 08:24:12,31.3347,-109.9483,61.41,79,24,3.31,few clouds
251,Yakovlevka,RU,2022-10-02 08:24:12,44.425,133.4772,68.7,73,20,4.65,few clouds
252,Cukai,MY,2022-10-02 08:24:12,4.25,103.4167,82.35,84,100,5.06,light rain
253,Abu Kamal,SY,2022-10-02 08:24:13,34.4506,40.9171,90.54,13,0,11.52,clear sky
254,Salalah,OM,2022-10-02 08:24:13,17.0151,54.0924,86.09,70,40,14.97,scattered clouds
255,Nueva Germania,PY,2022-10-02 08:24:14,-23.9,-56.5667,62.46,97,21,3.24,few clouds
256,Tierra Blanca,HN,2022-10-02 08:24:14,14.5833,-88.5833,67.05,99,100,2.19,overcast clouds
257,Coquimbo,CL,2022-10-02 08:24:15,-29.9533,-71.3436,53.33,100,100,3.44,overcast clouds
258,Linxia,CN,2022-10-02 08:24:15,35.6003,103.2064,61.97,49,44,11.39,scattered clouds
259,Meulaboh,ID,2022-10-02 08:24:16,4.1363,96.1285,84.11,69,97,11.92,overcast clouds
260,Barinas,VE,2022-10-02 08:24:16,8.6226,-70.2075,73.44,100,90,2.3,overcast clouds
261,East London,ZA,2022-10-02 08:24:16,-33.0153,27.9116,72.54,78,0,12.66,clear sky
262,Port Alfred,ZA,2022-10-02 08:24:17,-33.5906,26.891,68.18,83,43,4.0,scattered clouds
263,Sisimiut,GL,2022-10-02 08:24:17,66.9395,-53.6735,29.23,81,17,7.2,few clouds
264,Phalaborwa,ZA,2022-10-02 08:24:18,-23.943,31.1411,81.03,47,8,8.21,clear sky
265,Vila Franca Do Campo,PT,2022-10-02 08:24:18,37.7167,-25.4333,72.19,79,100,15.01,overcast clouds
266,Smidovich,RU,2022-10-02 08:24:19,48.6,133.8167,59.81,74,100,4.32,overcast clouds
267,Avera,US,2022-10-02 08:24:19,33.194,-82.5271,63.91,77,0,6.55,clear sky
268,College,US,2022-10-02 08:24:19,64.8569,-147.8028,43.59,90,100,5.75,moderate rain
269,Dunedin,NZ,2022-10-02 08:24:20,-45.8742,170.5036,47.8,81,30,8.59,scattered clouds
270,Troitsko-Pechorsk,RU,2022-10-02 08:24:21,62.7084,56.1964,46.35,82,100,9.19,overcast clouds
271,Iqaluit,CA,2022-10-02 08:24:21,63.7506,-68.5145,28.13,86,100,23.02,light snow
272,Ornskoldsvik,SE,2022-10-02 08:24:21,63.2909,18.7153,49.15,100,100,3.44,overcast clouds
273,Provideniya,RU,2022-10-02 08:24:22,64.3833,-173.3,36.12,79,25,10.49,scattered clouds
274,Oranmore,IE,2022-10-02 08:25:23,53.2683,-8.92,52.93,81,1,5.26,clear sky
275,Tiznit,MA,2022-10-02 08:25:23,29.5833,-9.5,73.94,34,0,4.03,clear sky
276,Sept-Iles,CA,2022-10-02 08:21:02,50.2001,-66.3821,39.2,70,40,10.36,scattered clouds
277,Ziro,IN,2022-10-02 08:25:24,27.6333,93.8333,72.34,52,100,3.11,overcast clouds
278,Pandamatenga,BW,2022-10-02 08:25:24,-18.5278,25.627,86.13,21,0,11.01,clear sky
279,Port Lincoln,AU,2022-10-02 08:25:24,-34.7333,135.8667,61.92,68,99,10.98,overcast clouds
280,Maningrida,AU,2022-10-02 08:25:25,-12.0667,134.2667,84.25,62,77,12.39,broken clouds
281,Walvis Bay,NA,2022-10-02 08:25:25,-22.9575,14.5053,56.35,88,100,4.61,overcast clouds
282,Havre-Saint-Pierre,CA,2022-10-02 08:25:26,50.2334,-63.5986,41.0,75,40,4.61,scattered clouds
283,Cairns,AU,2022-10-02 08:25:26,-16.9167,145.7667,80.11,71,100,8.05,overcast clouds
284,Cuicatlan,MX,2022-10-02 08:25:26,17.8,-96.9667,66.99,90,100,0.69,overcast clouds
285,Kailua,US,2022-10-02 08:25:21,21.4022,-157.7394,78.78,83,20,0.0,few clouds
286,Vao,NC,2022-10-02 08:25:27,-22.6667,167.4833,70.39,74,100,1.1,overcast clouds
287,Severnoye,RU,2022-10-02 08:25:27,56.3491,78.3619,43.93,39,8,3.15,clear sky
288,Goma,CD,2022-10-02 08:25:28,-1.6792,29.2228,74.7,59,83,3.13,light rain
289,Nyahururu,KE,2022-10-02 08:25:28,0.0421,36.3673,69.55,44,8,4.29,clear sky
290,Buala,SB,2022-10-02 08:25:29,-8.145,159.5921,80.71,78,34,3.38,light rain
291,Bhuj,IN,2022-10-02 08:25:29,23.2667,69.6667,89.76,41,0,11.65,clear sky
292,Constitucion,CL,2022-10-02 08:25:29,-35.3333,-72.4167,53.83,84,96,1.39,overcast clouds
293,Lorengau,PG,2022-10-02 08:25:30,-2.0226,147.2712,82.6,75,16,7.9,few clouds
294,Ocos,GT,2022-10-02 08:25:30,14.5094,-92.1933,73.58,84,100,5.01,overcast clouds
295,Zwedru,LR,2022-10-02 08:25:31,6.0667,-8.1281,72.7,97,100,2.91,light rain
296,Mackenzie,CA,2022-10-02 08:25:31,55.2999,-123.1698,66.42,48,100,12.66,overcast clouds
297,Berezovyy,RU,2022-10-02 08:25:31,51.6667,135.7,49.62,76,100,7.65,overcast clouds
298,Cayenne,GF,2022-10-02 08:25:32,4.9333,-52.3333,73.44,94,0,3.44,clear sky
299,Paciran,ID,2022-10-02 08:25:32,-6.8767,112.3761,85.77,66,71,10.67,broken clouds
300,Thompson,CA,2022-10-02 08:25:33,55.7435,-97.8558,39.36,65,20,2.3,few clouds
301,Pemba,MZ,2022-10-02 08:25:33,-12.974,40.5178,78.42,67,8,10.76,clear sky
302,Makungu,TZ,2022-10-02 08:25:33,-8.7333,35.2833,76.87,36,17,8.61,few clouds
303,Yulara,AU,2022-10-02 08:25:34,-25.2406,130.9889,76.21,45,54,12.37,broken clouds
304,Kisanga,TZ,2022-10-02 08:25:34,-7.4362,37.7034,86.23,41,8,5.08,clear sky
305,Port Hedland,AU,2022-10-02 08:25:35,-20.3167,118.5667,80.65,65,0,16.11,clear sky
306,High Rock,BS,2022-10-02 08:25:35,26.6208,-78.2833,75.22,79,24,12.93,few clouds
307,Trairi,BR,2022-10-02 08:23:54,-3.2778,-39.2689,76.73,83,26,12.64,scattered clouds
308,Gua Musang,MY,2022-10-02 08:25:35,4.8823,101.9644,90.39,50,100,0.94,overcast clouds
309,Husavik,IS,2022-10-02 08:25:36,66.0449,-17.3389,44.74,92,100,3.02,overcast clouds
310,Surt,LY,2022-10-02 08:25:36,31.2089,16.5887,80.2,73,66,16.24,broken clouds
311,Taoudenni,ML,2022-10-02 08:25:37,22.6783,-3.9836,90.91,17,99,6.8,overcast clouds
312,Atyrau,KZ,2022-10-02 08:25:37,47.1167,51.8833,69.82,32,40,20.13,scattered clouds
313,Vodnyy,RU,2022-10-02 08:25:37,63.5046,53.4095,42.76,95,100,8.41,light rain
314,Fairbanks,US,2022-10-02 08:20:51,64.8378,-147.7164,43.61,90,100,5.75,moderate rain
315,Los Llanos De Aridane,ES,2022-10-02 08:25:38,28.6585,-17.9182,65.95,86,75,6.91,broken clouds
316,Kropotkin,RU,2022-10-02 08:25:38,45.4375,40.5756,79.95,38,76,8.84,broken clouds
317,Mount Isa,AU,2022-10-02 08:25:39,-20.7333,139.5,87.57,18,87,6.91,overcast clouds
318,Maragogi,BR,2022-10-02 08:25:39,-9.0122,-35.2225,72.32,79,10,7.38,clear sky
319,Sitka,US,2022-10-02 08:26:39,57.0531,-135.33,48.09,81,20,0.0,few clouds
320,Berlin,DE,2022-10-02 08:24:07,52.5244,13.4105,58.98,85,0,14.0,clear sky
321,Ayan,RU,2022-10-02 08:26:40,56.45,138.1667,39.13,88,99,3.27,overcast clouds
322,Charters Towers,AU,2022-10-02 08:26:40,-20.1,146.2667,80.8,41,100,4.7,overcast clouds
323,Arman,RU,2022-10-02 08:26:41,59.7,150.1667,33.94,57,13,5.79,few clouds
324,Shingu,JP,2022-10-02 08:26:41,33.7333,135.9833,74.73,78,47,4.5,scattered clouds
325,Benjamin Constant,BR,2022-10-02 08:26:41,-4.3831,-70.0311,73.53,98,100,0.85,overcast clouds
326,Bar Harbor,US,2022-10-02 08:25:55,44.3876,-68.2039,52.99,64,0,14.97,clear sky
327,Ontario,US,2022-10-02 08:22:14,34.0633,-117.6509,67.95,82,40,5.01,scattered clouds
328,Kyzyl,RU,2022-10-02 08:26:42,51.7,94.45,36.99,26,10,2.73,clear sky
329,Gorontalo,ID,2022-10-02 08:26:42,0.5412,123.0595,79.66,86,99,2.57,moderate rain
330,Dubai,AE,2022-10-02 08:23:25,25.2582,55.3047,95.29,55,20,6.91,few clouds
331,Villanueva De La Serena,ES,2022-10-02 08:26:43,38.9766,-5.7974,64.69,35,4,5.55,clear sky
332,Honiara,SB,2022-10-02 08:26:43,-9.4333,159.95,79.48,85,100,3.6,overcast clouds
333,Rognan,NO,2022-10-02 08:26:43,67.0953,15.3878,50.88,76,100,3.67,overcast clouds
334,Pauini,BR,2022-10-02 08:26:44,-7.7136,-66.9764,71.96,76,73,0.74,broken clouds
335,Bom Conselho,BR,2022-10-02 08:26:44,-9.1697,-36.6797,66.42,72,96,10.36,overcast clouds
336,Batagay-Alyta,RU,2022-10-02 08:26:44,67.8006,130.4114,15.82,87,95,0.81,overcast clouds
337,Soure,BR,2022-10-02 08:26:45,-0.7167,-48.5233,79.09,80,89,11.05,overcast clouds
338,Port Hawkesbury,CA,2022-10-02 08:26:45,45.6169,-61.3485,51.39,83,100,5.99,overcast clouds
339,Jacareacanga,BR,2022-10-02 08:26:46,-6.2222,-57.7528,70.92,96,81,0.56,broken clouds
340,Puerto Narino,CO,2022-10-02 08:26:46,-3.7703,-70.3831,70.57,99,100,2.26,overcast clouds
341,Dawei,MM,2022-10-02 08:26:46,14.0833,98.2,83.41,75,93,4.54,overcast clouds
342,Nadym,RU,2022-10-02 08:26:47,65.5333,72.5167,37.45,65,100,15.97,overcast clouds
343,Gamba,GA,2022-10-02 08:26:47,-2.65,10.0,79.45,76,100,1.54,overcast clouds
344,Ciudad Bolivar,VE,2022-10-02 08:26:48,8.1222,-63.5497,74.82,91,93,4.92,overcast clouds
345,Trinidad,BO,2022-10-02 08:26:48,-14.8333,-64.9,71.38,65,39,2.28,scattered clouds
346,Hamilton,US,2022-10-02 08:23:09,39.1834,-84.5333,57.04,78,0,11.5,clear sky
347,Heihe,CN,2022-10-02 08:26:48,50.2441,127.4902,52.38,68,100,4.5,moderate rain
348,Manaure,CO,2022-10-02 08:26:49,11.7751,-72.4445,81.09,80,36,2.06,scattered clouds
349,Koutiala,ML,2022-10-02 08:26:49,12.3917,-5.4642,77.5,77,97,10.56,light rain
350,Payakumbuh,ID,2022-10-02 08:26:50,-0.2202,100.6308,77.31,81,100,1.07,light rain
351,Berbera,SO,2022-10-02 08:26:50,10.4396,45.0143,96.12,42,19,3.31,few clouds
352,Kavieng,PG,2022-10-02 08:26:50,-2.5744,150.7967,82.53,76,12,9.66,few clouds
353,Launceston,AU,2022-10-02 08:26:51,-41.45,147.1667,54.61,76,99,14.97,overcast clouds
354,Malaut,IN,2022-10-02 08:26:51,30.2167,74.4833,96.64,23,0,5.93,clear sky
355,Bengkulu,ID,2022-10-02 08:26:52,-3.8004,102.2655,78.66,88,100,8.86,overcast clouds
356,Novaya Zaimka,RU,2022-10-02 08:26:52,56.4857,66.9241,45.72,46,85,12.71,overcast clouds
357,Fonte Boa,BR,2022-10-02 08:26:52,-2.4959,-66.2662,71.56,99,100,3.13,overcast clouds
358,Moose Factory,CA,2022-10-02 08:26:53,51.2585,-80.6094,28.4,100,0,2.3,clear sky
359,Moindou,NC,2022-10-02 08:26:53,-21.6924,165.677,73.06,67,100,1.92,overcast clouds
360,Bonthe,SL,2022-10-02 08:26:53,7.5264,-12.505,77.18,86,100,4.81,light rain
361,Bonavista,CA,2022-10-02 08:26:54,48.6499,-53.1147,48.79,61,99,14.65,overcast clouds
362,Bolobo,CD,2022-10-02 08:26:54,-2.1667,16.2333,78.01,76,68,2.19,light rain
363,Coihaique,CL,2022-10-02 08:26:55,-45.5752,-72.0662,36.21,93,0,0.0,clear sky
364,Bukachacha,RU,2022-10-02 08:26:55,52.9833,116.9167,37.67,32,100,8.52,overcast clouds
365,Padang,ID,2022-10-02 08:27:55,-0.9492,100.3543,82.45,90,100,2.06,overcast clouds
366,Sukhumi,GE,2022-10-02 08:27:56,43.0033,41.0153,78.08,44,32,2.77,scattered clouds
367,Orlik,RU,2022-10-02 08:27:56,52.5178,99.825,28.18,34,100,6.98,overcast clouds
368,Mount Gambier,AU,2022-10-02 08:27:57,-37.8333,140.7667,56.17,74,66,7.4,broken clouds
369,Santa Isabel Do Rio Negro,BR,2022-10-02 08:27:57,-0.4139,-65.0192,71.73,99,100,2.24,moderate rain
370,Gizo,SB,2022-10-02 08:27:58,-8.103,156.8419,83.25,72,18,5.17,few clouds
371,Wad Madani,SD,2022-10-02 08:27:58,14.4012,33.5199,94.5,34,11,10.69,few clouds
372,Cabedelo,BR,2022-10-02 08:27:58,-6.9811,-34.8339,70.47,81,23,10.38,few clouds
373,Bitung,ID,2022-10-02 08:27:59,1.4451,125.1824,81.45,88,99,8.68,overcast clouds
374,Koungheul,SN,2022-10-02 08:27:59,13.9833,-14.8,77.58,87,98,3.51,overcast clouds
375,High Level,CA,2022-10-02 08:28:00,58.5169,-117.136,64.51,55,75,12.66,broken clouds
376,Oktyabrskiy,RU,2022-10-02 08:28:00,54.4815,53.471,53.08,51,100,15.82,overcast clouds
377,Sambava,MG,2022-10-02 08:28:00,-14.2667,50.1667,75.79,62,30,11.14,scattered clouds
378,Luderitz,NA,2022-10-02 08:28:01,-26.6481,15.1594,68.74,53,0,10.78,clear sky
379,Piombino,IT,2022-10-02 08:28:01,42.9348,10.5221,72.05,75,21,9.26,few clouds
380,Eureka,US,2022-10-02 08:24:02,40.8021,-124.1637,57.92,88,42,1.01,scattered clouds
381,Tokmak,UA,2022-10-02 08:23:22,47.2514,35.7058,72.05,64,100,17.43,overcast clouds
382,Aksu,CN,2022-10-02 08:28:02,41.1231,80.2644,63.45,31,63,10.42,broken clouds
383,Belaya Gora,RU,2022-10-02 08:28:02,68.5333,146.4167,25.88,72,98,2.68,overcast clouds
384,Durgapur,IN,2022-10-02 08:28:03,23.4833,87.3167,77.29,94,100,5.75,overcast clouds
385,Sola,VU,2022-10-02 08:28:03,-13.8833,167.55,80.73,73,9,10.89,clear sky
386,Komsomolskiy,UZ,2022-10-02 08:28:03,40.4272,71.7189,72.32,23,5,4.61,clear sky
387,Wajir,KE,2022-10-02 08:28:04,1.7471,40.0573,84.16,45,40,9.22,scattered clouds
388,Pimentel,PE,2022-10-02 08:28:04,-6.8367,-79.9342,60.96,89,91,9.64,overcast clouds
389,Narsaq,GL,2022-10-02 08:28:05,60.9167,-46.05,35.82,78,94,4.54,overcast clouds
390,Nata,PA,2022-10-02 08:28:05,8.3333,-80.5167,73.98,96,100,2.46,overcast clouds
391,Muisne,EC,2022-10-02 08:28:05,0.6,-80.0333,73.53,84,100,4.79,overcast clouds
392,Batemans Bay,AU,2022-10-02 08:28:06,-35.7167,150.1833,54.0,75,12,3.47,few clouds
393,Rafraf,TN,2022-10-02 08:28:06,37.1904,10.1837,73.72,65,0,19.51,clear sky
394,General Pico,AR,2022-10-02 08:28:07,-35.6566,-63.7568,54.1,43,1,8.05,clear sky
395,Yenagoa,NG,2022-10-02 08:28:07,4.9247,6.2642,77.59,88,100,3.4,light rain
396,Chagoda,RU,2022-10-02 08:28:07,59.164,35.3285,43.29,90,100,7.76,overcast clouds
397,Garissa,KE,2022-10-02 08:28:08,-0.4536,39.6401,85.71,40,77,19.22,broken clouds
398,Jaicos,BR,2022-10-02 08:28:08,-7.3592,-41.1378,70.23,57,2,4.76,clear sky
399,Olinda,BR,2022-10-02 08:28:09,-8.0089,-34.8553,74.93,78,75,3.44,broken clouds
400,Ahipara,NZ,2022-10-02 08:28:09,-35.1667,173.1667,59.07,95,100,14.07,overcast clouds
401,Ribeira Grande,PT,2022-10-02 08:28:09,38.5167,-28.7,72.0,88,40,25.32,scattered clouds
402,Bouar,CF,2022-10-02 08:28:10,5.934,15.596,72.95,79,94,4.16,light rain
403,Kloulklubed,PW,2022-10-02 08:28:10,7.0419,134.2556,82.9,67,28,4.03,scattered clouds
404,Takoradi,GH,2022-10-02 08:28:11,4.8845,-1.7554,77.41,84,60,3.8,broken clouds
405,Payo,ID,2022-10-02 08:28:11,-3.7508,103.6372,75.56,96,100,3.22,overcast clouds
406,Maloy,NO,2022-10-02 08:28:11,61.9353,5.1136,54.73,60,28,14.5,scattered clouds
407,Pipri,IN,2022-10-02 08:28:12,19.8,75.5333,86.74,46,40,11.59,scattered clouds
408,Coahuayana,MX,2022-10-02 08:28:12,18.7333,-103.6833,75.09,93,100,3.94,overcast clouds
409,Storslett,NO,2022-10-02 08:28:13,69.7678,21.0247,37.4,81,91,2.3,overcast clouds
410,Pucara,PE,2022-10-02 08:29:13,-15.9803,-71.4606,32.68,17,11,1.68,few clouds
411,Panama City,PA,2022-10-02 08:29:14,8.9936,-79.5197,76.28,89,100,5.75,overcast clouds
412,Garowe,SO,2022-10-02 08:29:14,8.4054,48.4845,88.16,39,31,17.07,scattered clouds
413,Atikokan,CA,2022-10-02 08:29:14,48.7555,-91.6216,45.7,71,100,5.01,overcast clouds
414,Jishou,CN,2022-10-02 08:29:15,28.3167,109.7167,94.32,40,93,7.78,overcast clouds
415,Leningradskiy,RU,2022-10-02 08:29:15,69.3833,178.4167,26.62,80,100,6.24,overcast clouds
416,Mansa,IN,2022-10-02 08:29:16,29.9833,75.3833,94.84,27,0,9.4,clear sky
417,Eresos,GR,2022-10-02 08:29:16,39.1667,25.9333,77.9,75,0,11.99,clear sky
418,Creel,MX,2022-10-02 08:29:16,27.75,-107.6333,48.85,74,0,4.0,clear sky
419,Vila,PT,2022-10-02 08:29:17,42.0304,-8.1588,49.08,57,100,3.22,overcast clouds
420,Karacakoy,TR,2022-10-02 08:29:17,41.4029,28.3834,73.24,66,40,14.56,scattered clouds
421,Manali,IN,2022-10-02 08:29:18,13.1667,80.2667,93.29,49,100,14.94,moderate rain
422,Port Blair,IN,2022-10-02 08:29:18,11.6667,92.75,87.84,70,40,13.8,scattered clouds
423,Sai Buri,TH,2022-10-02 08:29:18,6.7013,101.6168,87.51,57,100,10.71,overcast clouds
424,Warkworth,NZ,2022-10-02 08:29:19,-36.4,174.6667,60.44,94,97,9.35,overcast clouds
425,Floro,NO,2022-10-02 08:29:19,61.5996,5.0328,54.97,93,100,8.05,overcast clouds
426,Mayor Pablo Lagerenza,PY,2022-10-02 08:29:20,-19.9309,-60.7718,69.66,65,7,4.54,clear sky
427,Vila Velha,BR,2022-10-02 08:29:20,-20.3297,-40.2925,69.75,87,0,3.44,clear sky
428,Valera,VE,2022-10-02 08:29:20,9.3178,-70.6036,68.97,80,40,4.92,scattered clouds
429,Ballarpur,IN,2022-10-02 08:29:21,19.8333,79.35,89.6,55,26,10.87,scattered clouds
430,Rudbar,AF,2022-10-02 08:29:21,30.15,62.6,86.36,12,0,17.02,clear sky
431,Donskoye,RU,2022-10-02 08:29:22,45.4552,41.9741,80.73,38,56,14.0,broken clouds
432,Lisakovsk,KZ,2022-10-02 08:29:22,52.5369,62.4936,50.09,23,33,9.44,scattered clouds
433,Lagoa,PT,2022-10-02 08:29:22,39.05,-27.9833,70.72,86,100,27.56,moderate rain
434,Beaupre,CA,2022-10-02 08:29:23,47.0443,-70.8953,41.68,82,3,6.91,clear sky
435,Virginia Beach,US,2022-10-02 08:27:33,36.8529,-75.978,63.01,95,75,0.0,broken clouds
436,Havre,FR,2022-10-02 08:29:23,49.5833,0.3333,65.19,94,100,3.44,light rain
437,Khandyga,RU,2022-10-02 08:29:23,62.6667,135.6,28.74,62,100,3.69,overcast clouds
438,Dwarka,IN,2022-10-02 08:24:59,22.2394,68.9678,84.34,60,12,8.16,few clouds
439,Saijo,JP,2022-10-02 08:29:24,33.9167,133.1833,80.53,65,98,2.24,overcast clouds
440,Waingapu,ID,2022-10-02 08:29:24,-9.6567,120.2641,85.08,65,98,5.73,overcast clouds
441,Kushiro,JP,2022-10-02 08:26:36,42.975,144.3747,59.95,77,75,2.3,broken clouds
442,Sorong,ID,2022-10-02 08:29:25,-0.8833,131.25,81.64,78,52,2.01,broken clouds
443,Plettenberg Bay,ZA,2022-10-02 08:29:25,-34.0527,23.3716,70.43,58,5,5.75,clear sky
444,Gerash,IR,2022-10-02 08:29:25,27.6652,54.1371,91.54,16,0,3.42,clear sky
445,Koumac,NC,2022-10-02 08:29:26,-20.5667,164.2833,72.88,65,100,4.38,overcast clouds
446,Cacador,BR,2022-10-02 08:29:26,-26.7753,-51.015,48.38,99,21,0.94,few clouds
447,Rocha,UY,2022-10-02 08:29:27,-34.4833,-54.3333,46.67,89,7,2.77,clear sky
448,Lethem,GY,2022-10-02 08:29:27,3.3803,-59.7968,75.74,76,33,7.43,scattered clouds
449,Peceneaga,RO,2022-10-02 08:29:27,45.0167,28.1333,68.47,47,100,19.51,overcast clouds
450,Jamame,SO,2022-10-02 08:29:28,0.0722,42.7506,85.19,50,93,15.66,overcast clouds
451,Tymovskoye,RU,2022-10-02 08:29:28,50.8456,142.655,44.22,76,87,8.84,overcast clouds
452,Margate,GB,2022-10-02 08:28:34,51.3813,1.3862,56.88,88,100,3.0,overcast clouds
453,Acapulco,MX,2022-10-02 08:27:06,16.8634,-99.8901,78.62,89,100,4.61,overcast clouds
454,Senneterre,CA,2022-10-02 08:29:29,48.3835,-77.2328,29.08,89,7,4.21,clear sky
455,Cheremshan,RU,2022-10-02 08:29:29,54.6667,51.5,59.81,47,90,18.45,overcast clouds
456,Brae,GB,2022-10-02 08:30:30,60.3964,-1.353,53.33,80,62,19.84,broken clouds
457,Ishinomaki,JP,2022-10-02 08:30:30,38.4167,141.3,69.8,83,88,7.96,overcast clouds
458,Nabire,ID,2022-10-02 08:30:31,-3.3667,135.4833,79.88,82,72,0.31,broken clouds
459,Lubango,AO,2022-10-02 08:30:31,-14.9172,13.4925,81.75,19,5,9.57,clear sky
460,Gikongoro,RW,2022-10-02 08:30:31,-2.464,29.5739,73.87,49,84,7.16,light rain
461,Alice Springs,AU,2022-10-02 08:30:11,-23.7,133.8833,80.22,33,100,6.91,overcast clouds
462,Marsaxlokk,MT,2022-10-02 08:30:32,35.8419,14.5431,76.08,53,0,16.11,clear sky
463,Carson City,US,2022-10-02 08:30:32,39.1638,-119.7674,60.1,53,0,1.01,clear sky
464,Chara,RU,2022-10-02 08:30:33,56.9064,118.2631,26.13,71,100,2.68,overcast clouds
465,Bilibino,RU,2022-10-02 08:30:33,68.0546,166.4372,27.81,90,100,1.9,overcast clouds
466,Fukue,JP,2022-10-02 08:30:33,32.6881,128.8419,77.36,83,40,6.91,scattered clouds
467,Plaster Rock,CA,2022-10-02 08:30:34,46.9065,-67.39,34.32,87,9,4.32,clear sky
468,Alghero,IT,2022-10-02 08:30:34,40.5589,8.3181,73.49,78,20,8.05,few clouds
469,Paamiut,GL,2022-10-02 08:30:35,61.994,-49.6678,36.3,70,100,8.88,overcast clouds
470,La Serena,CL,2022-10-02 08:30:35,-29.9078,-71.2542,53.11,100,100,3.44,overcast clouds
471,Rawson,AR,2022-10-02 08:30:36,-43.3002,-65.1023,48.07,75,100,9.17,overcast clouds
472,Matara,LK,2022-10-02 08:30:36,5.9485,80.5353,83.34,76,82,17.11,broken clouds
473,Mahibadhoo,MV,2022-10-02 08:30:36,3.7833,72.9667,81.93,76,90,19.51,overcast clouds
474,Mehamn,NO,2022-10-02 08:30:37,71.0357,27.8492,40.95,75,100,2.3,overcast clouds
475,Mackay,AU,2022-10-02 08:30:37,-21.15,149.2,74.68,74,94,7.09,overcast clouds
476,Spornoye,RU,2022-10-02 08:30:38,50.8448,37.2913,68.61,66,100,14.76,overcast clouds
477,Agadez,NE,2022-10-02 08:30:38,19.75,10.25,94.32,10,0,12.66,clear sky
478,Sirjan,IR,2022-10-02 08:30:39,29.452,55.6814,82.54,14,0,6.06,clear sky
479,Muravlenko,RU,2022-10-02 08:30:39,63.7898,74.523,37.4,52,100,19.62,overcast clouds
480,Nevesinje,BA,2022-10-02 08:30:39,43.2586,18.1133,50.86,57,22,3.13,few clouds
481,Touros,BR,2022-10-02 08:29:22,-5.1989,-35.4608,74.57,78,0,13.58,clear sky
482,Kontagora,NG,2022-10-02 08:30:40,10.3999,5.4695,78.35,81,100,4.94,overcast clouds
483,Chicama,PE,2022-10-02 08:30:40,-7.8447,-79.1469,57.74,87,83,4.21,broken clouds
484,Lazaro Cardenas,MX,2022-10-02 08:30:41,17.9583,-102.2,76.42,88,100,4.07,overcast clouds
485,Sitio Novo Do Tocantins,BR,2022-10-02 08:30:41,-5.5183,-47.4611,75.13,83,0,3.44,clear sky
486,Playas,EC,2022-10-02 08:30:42,-2.6333,-80.3833,68.85,84,92,9.95,overcast clouds
487,Qui Nhon,VN,2022-10-02 08:30:42,13.7667,109.2333,82.02,81,100,7.0,overcast clouds
488,Kolpny,RU,2022-10-02 08:30:43,52.2282,37.0368,66.18,65,100,12.84,overcast clouds
489,Nenjiang,CN,2022-10-02 08:30:43,49.1833,125.2167,45.68,78,100,9.6,light rain
490,Praia Da Vitoria,PT,2022-10-02 08:30:44,38.7333,-27.0667,71.85,88,40,20.94,light intensity shower rain
491,Nacala,MZ,2022-10-02 08:30:44,-14.5428,40.6728,81.72,49,75,9.91,broken clouds
492,Canton,CN,2022-10-02 08:30:06,23.1167,113.25,94.87,48,47,10.96,scattered clouds
493,Naze,JP,2022-10-02 08:30:45,28.3667,129.4833,81.52,75,10,14.65,clear sky
494,Shepsi,RU,2022-10-02 08:30:45,44.0361,39.1489,76.03,52,60,14.85,broken clouds
495,Yatou,CN,2022-10-02 08:30:46,37.15,122.3833,72.39,97,99,12.48,overcast clouds
496,Marawi,PH,2022-10-02 08:30:46,7.9986,124.2928,73.45,91,99,3.53,moderate rain
497,Tarko-Sale,RU,2022-10-02 08:30:46,64.9225,77.785,38.25,53,100,18.34,overcast clouds
498,Ust-Kut,RU,2022-10-02 08:30:47,56.7938,105.7672,34.75,66,100,6.78,overcast clouds
499,Pisco,PE,2022-10-02 08:31:47,-13.7,-76.2167,59.05,88,100,8.05,mist
500,Faya,SA,2022-10-02 08:31:48,18.3851,42.4509,77.52,25,0,4.83,clear sky
501,Sao Mateus Do Maranhao,BR,2022-10-02 08:31:48,-4.0417,-44.475,71.38,97,5,2.95,clear sky
502,Taksimo,RU,2022-10-02 08:31:49,56.3444,114.8794,31.06,46,100,6.33,overcast clouds
503,Buzmeyin,TM,2022-10-02 08:31:49,38.0507,58.2056,74.93,19,20,9.22,few clouds
504,Santa Fe,AR,2022-10-02 08:31:50,-31.6333,-60.7,58.01,83,27,1.99,light rain
505,Manokwari,ID,2022-10-02 08:31:50,-0.8667,134.0833,81.55,75,100,6.98,overcast clouds
506,Henties Bay,NA,2022-10-02 08:31:51,-22.116,14.2845,63.57,69,5,10.78,clear sky
507,Ondjiva,AO,2022-10-02 08:31:51,-17.0667,15.7333,84.24,15,0,4.61,clear sky
508,Vestmanna,FO,2022-10-02 08:31:51,62.1564,-7.1664,49.12,76,100,19.57,light rain
509,Iquitos,PE,2022-10-02 08:31:52,-3.7481,-73.2472,73.44,94,100,1.14,overcast clouds
510,Evanston,US,2022-10-02 08:27:47,42.0411,-87.6901,60.06,82,0,6.91,clear sky
511,Road Town,VG,2022-10-02 08:31:52,18.4167,-64.6167,82.49,74,99,12.62,overcast clouds
512,Khani,GE,2022-10-02 08:31:52,41.9563,42.9566,72.97,27,34,4.88,scattered clouds
513,Lata,PT,2022-10-02 08:31:53,40.1629,-8.3327,65.8,33,13,4.18,few clouds
514,Sobolevo,RU,2022-10-02 08:31:53,54.4299,31.8996,52.41,69,100,9.13,overcast clouds
515,San Cristobal,VE,2022-10-02 08:31:53,7.7669,-72.225,65.82,86,91,2.33,overcast clouds
516,Lonavale,IN,2022-10-02 08:31:54,18.75,73.4167,76.93,77,71,5.48,broken clouds
517,Harseni,RO,2022-10-02 08:31:54,45.75,25.0167,57.65,82,99,17.43,overcast clouds
518,Acarau,BR,2022-10-02 08:31:10,-2.8856,-40.12,77.2,82,41,15.46,scattered clouds
519,Nguruka,TZ,2022-10-02 08:31:54,-5.1092,31.0419,88.74,27,100,7.83,overcast clouds
520,Huarmey,PE,2022-10-02 08:31:55,-10.0681,-78.1522,60.93,89,72,6.98,broken clouds
521,Tabuk,PH,2022-10-02 08:31:55,17.4189,121.4443,78.58,85,100,1.97,light rain
522,Abalak,RU,2022-10-02 08:31:56,58.1286,68.5944,46.51,37,15,11.27,few clouds
523,Usinsk,RU,2022-10-02 08:31:56,65.9939,57.5281,40.84,93,100,12.21,overcast clouds
524,Juneau,US,2022-10-02 08:29:20,58.3019,-134.4197,50.22,94,100,8.05,light rain
525,Kiama,AU,2022-10-02 08:31:57,-34.6833,150.8667,57.99,80,3,2.13,clear sky
526,Estrela,BR,2022-10-02 08:31:57,-28.0611,-50.9383,49.41,99,21,1.9,few clouds
527,Royan,FR,2022-10-02 08:31:57,45.6285,-1.0281,64.83,77,73,12.1,broken clouds
528,Axim,GH,2022-10-02 08:31:58,4.8699,-2.2405,79.56,77,75,4.21,broken clouds
529,Lakhnadon,IN,2022-10-02 08:31:58,22.6,79.6,83.16,57,82,11.79,broken clouds
530,Toora-Khem,RU,2022-10-02 08:31:59,52.4675,96.11,35.04,30,100,2.89,overcast clouds
531,Palmer,US,2022-10-02 08:31:59,42.1584,-72.3287,57.24,73,100,10.36,overcast clouds
532,Buckeye,US,2022-10-02 08:31:08,33.3703,-112.5838,83.82,50,0,0.0,clear sky
533,Puerto Colombia,CO,2022-10-02 08:32:00,10.9878,-74.9547,75.29,79,100,2.73,overcast clouds
534,Bullhead City,US,2022-10-02 08:30:45,35.1478,-114.5683,86.09,43,0,1.01,clear sky
535,Cabangahan,PH,2022-10-02 08:32:00,9.0781,122.9469,87.58,76,100,6.08,overcast clouds
536,Vikulovo,RU,2022-10-02 08:32:01,56.8167,70.6107,44.1,38,6,11.01,clear sky
537,Kutum,SD,2022-10-02 08:32:01,14.2,24.6667,86.65,29,11,4.27,few clouds
538,Iskilip,TR,2022-10-02 08:32:01,40.7353,34.4739,80.96,25,90,9.08,overcast clouds
539,Matucana,PE,2022-10-02 08:32:02,-11.85,-76.4,59.2,63,37,3.49,scattered clouds
540,Anloga,GH,2022-10-02 08:32:02,5.7947,0.8973,79.05,80,100,6.96,overcast clouds
541,Champua,IN,2022-10-02 08:32:03,22.0833,85.6667,76.19,90,99,6.06,heavy intensity rain
542,Kahului,US,2022-10-02 08:32:03,20.8947,-156.47,78.82,74,0,4.61,clear sky
543,Ekhabi,RU,2022-10-02 08:32:04,53.5102,142.9671,46.87,77,100,17.25,overcast clouds
544,Muscat,OM,2022-10-02 08:32:04,23.6139,58.5922,91.42,57,0,9.98,clear sky
545,Nicoya,CR,2022-10-02 08:32:04,10.1483,-85.452,72.41,96,100,1.74,overcast clouds
546,Krasnystaw,PL,2022-10-02 08:32:05,50.9846,23.1742,53.8,91,93,16.98,overcast clouds
547,Kidal,ML,2022-10-02 08:33:05,18.4411,1.4078,92.1,29,15,9.33,few clouds
548,Hakkari,TR,2022-10-02 08:33:05,37.5833,44.1667,69.58,32,0,3.44,clear sky
549,Esso,RU,2022-10-02 08:33:06,55.9333,158.7,32.14,96,61,5.91,broken clouds
550,Manicore,BR,2022-10-02 08:33:06,-5.8092,-61.3003,72.27,96,99,0.89,overcast clouds
551,Nosy Varika,MG,2022-10-02 08:33:07,-20.5833,48.5333,76.37,60,4,9.89,clear sky
552,Prince Rupert,CA,2022-10-02 08:31:13,54.3161,-130.3201,53.29,90,0,8.05,clear sky
553,Dumas,US,2022-10-02 08:33:07,35.8656,-101.9732,59.14,44,0,9.22,clear sky
554,Saint-Pierre,RE,2022-10-02 08:33:08,-21.3393,55.4781,76.68,54,75,21.85,broken clouds
555,Olga,RU,2022-10-02 08:33:08,43.7444,135.2892,54.01,91,99,2.06,overcast clouds
556,Lukuledi,TZ,2022-10-02 08:33:08,-10.5667,38.8,92.28,25,0,5.17,clear sky
557,Havoysund,NO,2022-10-02 08:33:09,70.9963,24.6622,43.03,71,100,5.17,overcast clouds
558,Gazanjyk,TM,2022-10-02 08:33:10,39.2446,55.5154,75.67,14,0,15.43,clear sky
559,Mazatlan,MX,2022-10-02 08:33:10,23.2167,-106.4167,80.02,83,100,9.22,thunderstorm
560,Parainen,FI,2022-10-02 08:33:10,60.3067,22.301,54.1,77,100,13.04,overcast clouds
561,Almeirim,BR,2022-10-02 08:33:11,-1.5233,-52.5817,73.58,90,44,3.74,scattered clouds
562,Kyshtovka,RU,2022-10-02 08:33:11,56.555,76.6271,43.74,38,8,4.5,clear sky
563,Roblin,CA,2022-10-02 08:30:45,51.23,-101.3565,44.11,90,0,5.03,clear sky
564,Ixtapa,MX,2022-10-02 08:33:12,20.7,-105.2,77.23,90,100,4.7,overcast clouds
565,Goderich,CA,2022-10-02 08:28:59,43.7501,-81.7165,49.91,81,0,12.66,clear sky
566,Sarab,IR,2022-10-02 08:33:12,38.6066,44.9883,74.52,33,0,4.61,clear sky
567,Lavrentiya,RU,2022-10-02 08:33:13,65.5833,-171.0,33.76,83,12,9.6,few clouds
568,Sompeta,IN,2022-10-02 08:33:13,18.9333,84.6,88.09,69,87,9.15,overcast clouds
569,Atar,MR,2022-10-02 08:33:13,20.5169,-13.0499,82.92,26,0,5.06,clear sky
570,Vysha,RU,2022-10-02 08:33:14,53.8477,42.3777,64.4,70,98,6.87,overcast clouds
571,Alofi,NU,2022-10-02 08:33:14,-19.0595,-169.9187,73.29,78,15,8.05,few clouds
572,San Ramon,US,2022-10-02 08:33:14,37.7799,-121.978,62.42,83,100,9.22,overcast clouds
573,Mianyang,CN,2022-10-02 08:33:15,31.4593,104.7542,79.68,76,85,7.52,overcast clouds
574,Karratha,AU,2022-10-02 08:31:15,-20.7377,116.8463,80.67,36,0,23.2,clear sky
575,Ingham,US,2022-10-02 08:33:15,42.6,-84.3833,57.06,82,100,9.22,overcast clouds
576,Rampura,IN,2022-10-02 08:29:05,30.25,75.2333,94.84,27,0,8.19,clear sky
577,Innisfail,AU,2022-10-02 08:30:45,-17.5333,146.0333,73.76,73,56,3.24,broken clouds
578,Newport,GB,2022-10-02 08:30:01,51.5877,-2.9984,55.63,90,100,3.56,overcast clouds
579,San Quintin,MX,2022-10-02 08:33:16,30.4833,-115.95,67.06,81,50,10.47,scattered clouds
580,Seinajoki,FI,2022-10-02 08:33:17,62.7945,22.8282,48.97,94,75,9.22,broken clouds
581,Labrea,BR,2022-10-02 08:33:17,-7.2586,-64.7981,73.06,80,100,2.46,light rain
582,Alexandria,EG,2022-10-02 08:32:44,31.2156,29.9553,88.34,58,0,5.75,clear sky
583,Toyooka,JP,2022-10-02 08:33:18,35.5333,134.8333,75.25,83,0,4.61,clear sky
584,Romny,UA,2022-10-02 08:33:18,50.751,33.4747,58.78,94,100,14.52,moderate rain
585,Olafsvik,IS,2022-10-02 08:33:18,64.8945,-23.7142,46.44,91,100,20.67,overcast clouds
586,Mezhevoy,RU,2022-10-02 08:33:19,55.1711,58.7814,55.94,44,89,6.42,overcast clouds
587,Cabra,ES,2022-10-02 08:33:19,37.4725,-4.4421,70.29,24,0,2.95,clear sky
588,Seki,JP,2022-10-02 08:33:20,34.85,136.4,76.12,80,48,3.29,scattered clouds
589,Auray,FR,2022-10-02 08:33:20,47.6703,-2.9918,63.68,96,64,16.8,broken clouds
590,Jablanica,BA,2022-10-02 08:33:20,43.6603,17.7617,59.13,57,30,3.42,scattered clouds
591,Louga,RU,2022-10-02 08:34:21,58.7372,29.8453,51.21,64,95,5.06,overcast clouds
592,Tubmanburg,LR,2022-10-02 08:34:21,6.8708,-10.8172,77.56,88,93,3.09,light rain
593,Jaisalmer,IN,2022-10-02 08:34:22,26.9147,70.9181,94.35,24,0,12.41,clear sky
594,Nichinan,JP,2022-10-02 08:34:22,31.6,131.3667,80.28,70,10,6.49,clear sky
595,Xingyi,CN,2022-10-02 08:34:22,24.1877,102.817,68.68,82,97,3.98,overcast clouds
596,Valparaiso,CL,2022-10-02 08:34:23,-33.0393,-71.6273,56.48,94,100,2.3,mist
597,Shelburne,CA,2022-10-02 08:34:23,44.0787,-80.2041,41.79,80,0,11.25,clear sky
598,Dabat,ET,2022-10-02 08:34:23,12.9842,37.765,64.04,63,24,3.2,light rain
599,Zelenoborskiy,RU,2022-10-02 08:34:24,66.845,32.3622,40.37,79,55,3.51,broken clouds
600,Anito,PH,2022-10-02 08:34:24,12.4497,125.2886,82.0,83,90,5.95,overcast clouds
601,Colares,PT,2022-10-02 08:34:25,38.7992,-9.4469,70.32,64,0,15.99,clear sky
602,Opotiki,NZ,2022-10-02 08:34:25,-38.0833,177.2833,56.25,96,46,3.78,scattered clouds
603,Victor Harbor,AU,2022-10-02 08:34:26,-35.5667,138.6167,65.68,76,100,6.02,light rain
604,Tilichiki,RU,2022-10-02 08:34:26,60.4667,166.1,32.14,96,100,5.79,overcast clouds
605,Mabaruma,GY,2022-10-02 08:34:26,8.2,-59.7833,74.55,97,57,2.08,broken clouds
606,Shebalino,RU,2022-10-02 08:34:27,51.2917,85.6772,39.58,39,1,4.9,clear sky
607,Glace Bay,CA,2022-10-02 08:34:27,46.1969,-59.957,50.97,77,20,10.0,few clouds
608,Renqiu,CN,2022-10-02 08:34:28,38.6989,116.0936,63.7,92,100,7.61,overcast clouds
609,Kamenka,RU,2022-10-02 08:34:28,51.3223,42.7678,70.18,64,100,12.3,overcast clouds
610,Asilah,MA,2022-10-02 08:34:28,35.465,-6.0348,73.36,61,0,16.46,clear sky
611,Surgut,RU,2022-10-02 08:34:29,61.25,73.4167,41.18,44,0,15.99,clear sky
612,Kyren,RU,2022-10-02 08:34:29,51.6828,102.1408,36.63,42,98,3.76,overcast clouds
613,Verkhoyansk,RU,2022-10-02 08:34:30,67.5447,133.385,25.12,92,100,0.67,overcast clouds
614,Villazon,BO,2022-10-02 08:34:30,-22.0866,-65.5942,37.36,88,6,1.7,clear sky
615,Cururupu,BR,2022-10-02 08:34:30,-1.8283,-44.8683,75.6,86,13,3.98,few clouds
616,Porto Novo,BJ,2022-10-02 08:34:31,6.4965,2.6036,78.62,74,95,4.41,overcast clouds
617,Porbandar,IN,2022-10-02 08:34:31,21.6422,69.6093,85.35,58,7,8.48,clear sky
618,Padong,PH,2022-10-02 08:34:32,18.0522,120.7567,89.08,82,99,4.05,overcast clouds
619,Adre,TD,2022-10-02 08:34:32,13.4667,22.2,88.11,36,2,5.14,clear sky
620,Riyadh,SA,2022-10-02 08:31:46,24.6877,46.7219,95.14,9,0,4.83,clear sky
621,West Odessa,US,2022-10-02 08:34:33,31.8424,-102.4988,68.05,51,0,6.91,clear sky
622,Thinadhoo,MV,2022-10-02 08:34:33,0.5333,72.9333,81.39,74,100,17.69,moderate rain
623,Antalaha,MG,2022-10-02 08:34:33,-14.9003,50.2788,77.68,55,60,10.85,broken clouds
624,Nuuk,GL,2022-10-02 08:34:34,64.1835,-51.7216,34.41,86,16,2.3,few clouds
625,Evensk,RU,2022-10-02 08:34:34,61.95,159.2333,32.97,72,90,8.79,overcast clouds
626,Lakes Entrance,AU,2022-10-02 08:34:35,-37.8811,147.981,51.62,73,6,1.5,clear sky
627,Along,IN,2022-10-02 08:34:35,28.1667,94.7667,90.75,48,80,1.5,broken clouds
628,Slave Lake,CA,2022-10-02 08:30:18,55.2834,-114.769,49.98,93,0,5.75,clear sky
629,Rosetta,EG,2022-10-02 08:34:35,31.4044,30.4164,85.03,59,0,9.35,clear sky
630,Makat,KZ,2022-10-02 08:34:36,47.6469,53.3463,66.88,30,97,20.4,overcast clouds
631,Wewak,PG,2022-10-02 08:34:36,-3.5534,143.6268,81.5,78,80,7.31,broken clouds
632,Tsaratanana,MG,2022-10-02 08:34:37,-16.7833,47.65,87.1,26,0,9.91,clear sky
633,Okhotsk,RU,2022-10-02 08:32:14,59.3833,143.3,37.54,64,100,7.2,overcast clouds
634,Taber,CA,2022-10-02 08:30:05,49.8167,-112.1518,57.25,69,98,7.02,overcast clouds
635,Ust-Uda,RU,2022-10-02 08:34:37,54.1742,103.0304,36.0,70,100,11.32,overcast clouds
636,Pointe Michel,DM,2022-10-02 08:34:38,15.25,-61.3833,81.36,79,100,10.07,overcast clouds
637,Sakaiminato,JP,2022-10-02 08:34:38,35.55,133.2333,78.73,83,75,8.05,broken clouds
638,Teguldet,RU,2022-10-02 08:35:38,57.3064,88.1667,38.68,55,100,4.29,overcast clouds
639,Nanakuli,US,2022-10-02 08:35:39,21.3906,-158.1547,78.75,75,0,4.61,clear sky
640,Little Current,CA,2022-10-02 08:35:39,45.9793,-81.9248,43.41,70,0,16.69,clear sky
641,Birin,NP,2022-10-02 08:35:40,26.8865,88.0718,73.76,71,23,3.78,few clouds
642,Maxixe,MZ,2022-10-02 08:35:09,-23.8597,35.3472,83.57,50,2,8.57,clear sky
643,Poquoson,US,2022-10-02 08:35:40,37.1224,-76.3458,62.01,96,100,0.0,overcast clouds
644,Acajutla,SV,2022-10-02 08:35:41,13.5928,-89.8275,77.41,83,100,7.9,overcast clouds
645,Chegdomyn,RU,2022-10-02 08:35:41,51.1167,133.0167,43.07,97,100,2.98,moderate rain
646,Okha,RU,2022-10-02 08:32:10,53.5739,142.9478,47.28,76,100,17.52,overcast clouds
647,Birjand,IR,2022-10-02 08:35:42,32.8663,59.2211,81.07,14,0,6.91,clear sky
648,Shimsk,RU,2022-10-02 08:35:42,58.212,30.7127,51.48,66,98,7.11,overcast clouds
649,Huntsville,US,2022-10-02 08:34:38,34.7304,-86.5861,56.89,76,0,0.0,clear sky
650,Karatau,KZ,2022-10-02 08:35:43,43.1667,70.4667,57.38,19,0,7.09,clear sky
651,Acaponeta,MX,2022-10-02 08:35:43,22.4964,-105.3594,76.3,94,100,2.42,overcast clouds
652,Banjar,ID,2022-10-02 08:35:43,-8.19,114.9675,82.24,83,68,1.83,broken clouds
653,Pak Phanang,TH,2022-10-02 08:35:44,8.3511,100.202,91.42,69,96,6.24,overcast clouds
654,Strai,NO,2022-10-02 08:35:44,58.2,7.9,52.39,78,0,0.0,clear sky
655,Nuevo Casas Grandes,MX,2022-10-02 08:35:44,30.4167,-107.9167,58.75,85,60,5.99,broken clouds
656,Torbat-E Jam,IR,2022-10-02 08:35:45,35.244,60.6225,72.93,18,0,14.92,clear sky
657,Miles City,US,2022-10-02 08:35:45,46.4083,-105.8406,52.77,100,0,4.61,mist
658,Grindavik,IS,2022-10-02 08:35:46,63.8424,-22.4338,46.87,81,100,29.93,overcast clouds
659,Potenza,IT,2022-10-02 08:35:46,40.6443,15.8086,65.07,58,0,5.48,clear sky
660,Kuytun,RU,2022-10-02 08:35:46,54.3419,101.5036,34.77,71,100,12.95,overcast clouds
661,Ust-Kulom,RU,2022-10-02 08:35:15,61.6864,53.6902,42.76,94,100,9.75,light rain
662,Buin,CL,2022-10-02 08:35:47,-33.7333,-70.75,64.11,73,0,2.21,clear sky
663,Macas,EC,2022-10-02 08:35:47,-2.3167,-78.1167,61.27,94,37,3.65,scattered clouds
664,General Jose Eduvigis Diaz,PY,2022-10-02 08:35:48,-27.1667,-58.4167,58.08,91,0,6.4,clear sky
665,Kudahuvadhoo,MV,2022-10-02 08:35:48,2.6708,72.8944,82.49,74,95,18.66,overcast clouds
666,Samana,DO,2022-10-02 08:35:48,19.2056,-69.3369,76.28,92,31,6.71,scattered clouds
667,Nador,MA,2022-10-02 08:35:49,35.174,-2.9287,71.85,78,75,10.36,broken clouds
668,Saint-Augustin,CA,2022-10-02 08:35:49,51.226,-58.6502,35.82,69,10,10.96,clear sky
669,Lianzhou,CN,2022-10-02 08:35:50,24.7811,112.3825,89.06,57,96,6.73,overcast clouds
670,Pizarro,CO,2022-10-02 08:35:50,4.9533,-77.366,74.89,89,100,3.22,overcast clouds
671,Carutapera,BR,2022-10-02 08:35:51,-1.195,-46.02,77.95,81,79,6.98,broken clouds
672,Roma,US,2022-10-02 08:31:47,43.2128,-75.4557,50.09,75,0,3.44,clear sky
673,Teknaf,BD,2022-10-02 08:35:51,20.8624,92.3058,79.99,90,96,11.01,overcast clouds
674,Caravelas,BR,2022-10-02 08:35:51,-17.7125,-39.2481,70.21,82,1,2.28,clear sky
675,Tsimlyansk,RU,2022-10-02 08:35:52,47.6461,42.1019,75.49,47,100,11.36,overcast clouds
676,Moron,AR,2022-10-02 08:35:52,-34.6534,-58.6198,58.96,89,18,3.83,few clouds
677,Sayyan,YE,2022-10-02 08:35:53,15.1718,44.3244,70.84,18,2,3.38,clear sky
678,Kerema,PG,2022-10-02 08:35:53,-7.9631,145.7785,80.29,86,99,4.03,overcast clouds
679,Fiche,ET,2022-10-02 08:35:53,9.8,38.7333,62.33,58,28,4.34,light rain
680,Jumla,NP,2022-10-02 08:35:54,29.2747,82.1838,67.8,63,39,5.12,scattered clouds
681,Lubao,PH,2022-10-02 08:35:54,14.9167,120.55,89.31,79,89,7.65,overcast clouds
682,Taree,AU,2022-10-02 08:36:54,-31.9,152.4667,55.11,79,20,0.63,few clouds
683,Mirante Do Paranapanema,BR,2022-10-02 08:36:55,-22.2919,-51.9064,63.63,92,0,3.96,clear sky
684,West Bay,KY,2022-10-02 08:34:00,19.3667,-81.4167,80.01,74,74,7.0,broken clouds
685,Makamba,BI,2022-10-02 08:36:55,-4.1348,29.804,80.35,41,100,7.52,overcast clouds
686,Boa Vista,BR,2022-10-02 08:36:22,2.8197,-60.6733,76.98,78,75,3.44,broken clouds
687,Kalmunai,LK,2022-10-02 08:36:56,7.4167,81.8167,93.92,45,94,1.48,overcast clouds
688,Lopatyn,UA,2022-10-02 08:36:56,50.2202,24.8483,52.93,85,99,19.55,overcast clouds
689,Pangnirtung,CA,2022-10-02 08:36:56,66.1451,-65.7125,28.11,52,3,6.04,clear sky
690,Marsh Harbour,BS,2022-10-02 08:35:32,26.5412,-77.0636,80.8,77,2,6.26,clear sky
691,Zawiercie,PL,2022-10-02 08:36:57,50.4877,19.4168,55.15,96,95,15.99,overcast clouds
692,Haines Junction,CA,2022-10-02 08:36:57,60.7522,-137.5108,33.75,80,100,3.44,overcast clouds
693,Barra,BR,2022-10-02 08:36:58,-11.0894,-43.1417,74.28,70,14,9.13,few clouds
694,Zeya,RU,2022-10-02 08:36:58,53.75,127.2667,36.91,82,59,6.69,broken clouds
695,Richards Bay,ZA,2022-10-02 08:36:58,-28.783,32.0377,77.43,64,86,5.68,overcast clouds
696,Clarence Town,AU,2022-10-02 08:36:59,-32.5833,151.7833,59.86,79,4,2.51,clear sky
697,Atambua,ID,2022-10-02 08:36:59,-9.1061,124.8925,78.12,78,90,1.48,overcast clouds
